<?xml version="1.0" encoding="UTF-8" standalone="no"?>
<countries>
  <country>
    <countryCode>AF</countryCode>
    <countryName>Afghanistan</countryName>
    <longitude>67.709953</longitude>
    <latitude>33.93911</latitude>
  </country>
  <country>
    <countryCode>AX</countryCode>
    <countryName>Åland Islands</countryName>
    <longitude>20.3711715</longitude>
    <latitude>60.1995487</latitude>
  </country>
  <country>
    <countryCode>AL</countryCode>
    <countryName>Albania</countryName>
    <longitude>20.168331</longitude>
    <latitude>41.153332</latitude>
  </country>
  <country>
    <countryCode>DZ</countryCode>
    <countryName>Algeria</countryName>
    <longitude>1.659626</longitude>
    <latitude>28.033886</latitude>
  </country>
  <country>
    <countryCode>AS</countryCode>
    <countryName>American Samoa</countryName>
    <longitude>-170.132217</longitude>
    <latitude>-14.270972</latitude>
  </country>
  <country>
    <countryCode>AD</countryCode>
    <countryName>Andorra</countryName>
    <longitude>1.601554</longitude>
    <latitude>42.546245</latitude>
  </country>
  <country>
    <countryCode>AO</countryCode>
    <countryName>Angola</countryName>
    <longitude>17.873887</longitude>
    <latitude>-11.202692</latitude>
  </country>
  <country>
    <countryCode>AI</countryCode>
    <countryName>Anguilla</countryName>
    <longitude>-63.068615</longitude>
    <latitude>18.220554</latitude>
  </country>
  <country>
    <countryCode>AQ</countryCode>
    <countryName>Antarctica</countryName>
    <longitude>-0.071389</longitude>
    <latitude>-75.250973</latitude>
  </country>
  <country>
    <countryCode>AG</countryCode>
    <countryName>Antigua and Barbuda</countryName>
    <longitude>-61.796428</longitude>
    <latitude>17.060816</latitude>
  </country>
  <country>
    <countryCode>AR</countryCode>
    <countryName>Argentina</countryName>
    <longitude>-63.616672</longitude>
    <latitude>-38.416097</latitude>
  </country>
  <country>
    <countryCode>AM</countryCode>
    <countryName>Armenia</countryName>
    <longitude>45.038189</longitude>
    <latitude>40.069099</latitude>
  </country>
  <country>
    <countryCode>AW</countryCode>
    <countryName>Aruba</countryName>
    <longitude>-69.968338</longitude>
    <latitude>12.52111</latitude>
  </country>
  <country>
    <countryCode>AU</countryCode>
    <countryName>Australia</countryName>
    <longitude>133.775136</longitude>
    <latitude>-25.274398</latitude>
  </country>
  <country>
    <countryCode>AT</countryCode>
    <countryName>Austria</countryName>
    <longitude>14.550072</longitude>
    <latitude>47.516231</latitude>
  </country>
  <country>
    <countryCode>AZ</countryCode>
    <countryName>Azerbaijan</countryName>
    <longitude>47.576927</longitude>
    <latitude>40.143105</latitude>
  </country>
  <country>
    <countryCode>BS</countryCode>
    <countryName>Bahamas</countryName>
    <longitude>-77.39628</longitude>
    <latitude>25.03428</latitude>
  </country>
  <country>
    <countryCode>BH</countryCode>
    <countryName>Bahrain</countryName>
    <longitude>50.637772</longitude>
    <latitude>25.930414</latitude>
  </country>
  <country>
    <countryCode>BD</countryCode>
    <countryName>Bangladesh</countryName>
    <longitude>90.356331</longitude>
    <latitude>23.684994</latitude>
  </country>
  <country>
    <countryCode>BB</countryCode>
    <countryName>Barbados</countryName>
    <longitude>-59.543198</longitude>
    <latitude>13.193887</latitude>
  </country>
  <country>
    <countryCode>BY</countryCode>
    <countryName>Belarus</countryName>
    <longitude>27.953389</longitude>
    <latitude>53.709807</latitude>
  </country>
  <country>
    <countryCode>BE</countryCode>
    <countryName>Belgium</countryName>
    <longitude>4.469936</longitude>
    <latitude>50.503887</latitude>
  </country>
  <country>
    <countryCode>BZ</countryCode>
    <countryName>Belize</countryName>
    <longitude>-88.49765</longitude>
    <latitude>17.189877</latitude>
  </country>
  <country>
    <countryCode>BJ</countryCode>
    <countryName>Benin</countryName>
    <longitude>2.315834</longitude>
    <latitude>9.30769</latitude>
  </country>
  <country>
    <countryCode>BM</countryCode>
    <countryName>Bermuda</countryName>
    <longitude>-64.75737</longitude>
    <latitude>32.321384</latitude>
  </country>
  <country>
    <countryCode>BT</countryCode>
    <countryName>Bhutan</countryName>
    <longitude>90.433601</longitude>
    <latitude>27.514162</latitude>
  </country>
  <country>
    <countryCode>BO</countryCode>
    <countryName>Bolivia</countryName>
    <longitude>-63.588653</longitude>
    <latitude>-16.290154</latitude>
  </country>
  <country>
    <countryCode>BQ</countryCode>
    <countryName>Bonaire, Sint Eustatius and Saba</countryName>
    <longitude>-68.308183</longitude>
    <latitude>12.1683718</latitude>
  </country>
  <country>
    <countryCode>BA</countryCode>
    <countryName>Bosnia and Herzegovina</countryName>
    <longitude>17.679076</longitude>
    <latitude>43.915886</latitude>
  </country>
  <country>
    <countryCode>BW</countryCode>
    <countryName>Botswana</countryName>
    <longitude>24.684866</longitude>
    <latitude>-22.328474</latitude>
  </country>
  <country>
    <countryCode>BV</countryCode>
    <countryName>Bouvet Island</countryName>
    <longitude>3.413194</longitude>
    <latitude>-54.423199</latitude>
  </country>
  <country>
    <countryCode>BR</countryCode>
    <countryName>Brazil</countryName>
    <longitude>-51.92528</longitude>
    <latitude>-14.235004</latitude>
  </country>
  <country>
    <countryCode>IO</countryCode>
    <countryName>British Indian Ocean Territory</countryName>
    <longitude>71.876519</longitude>
    <latitude>-6.343194</latitude>
  </country>
  <country>
    <countryCode>VG</countryCode>
    <countryName>British Virgin Islands</countryName>
    <longitude>-64.639968</longitude>
    <latitude>18.420695</latitude>
  </country>
  <country>
    <countryCode>BN</countryCode>
    <countryName>Brunei</countryName>
    <longitude>114.727669</longitude>
    <latitude>4.535277</latitude>
  </country>
  <country>
    <countryCode>BG</countryCode>
    <countryName>Bulgaria</countryName>
    <longitude>25.48583</longitude>
    <latitude>42.733883</latitude>
  </country>
  <country>
    <countryCode>BF</countryCode>
    <countryName>Burkina Faso</countryName>
    <longitude>-1.561593</longitude>
    <latitude>12.238333</latitude>
  </country>
  <country>
    <countryCode>BI</countryCode>
    <countryName>Burundi</countryName>
    <longitude>29.918886</longitude>
    <latitude>-3.373056</latitude>
  </country>
  <country>
    <countryCode>CV</countryCode>
    <countryName>Cabo Verde</countryName>
    <longitude>-24.013197</longitude>
    <latitude>16.002082</latitude>
  </country>
  <country>
    <countryCode>KH</countryCode>
    <countryName>Cambodia</countryName>
    <longitude>104.990963</longitude>
    <latitude>12.565679</latitude>
  </country>
  <country>
    <countryCode>CM</countryCode>
    <countryName>Cameroon</countryName>
    <longitude>12.354722</longitude>
    <latitude>7.369722</latitude>
  </country>
  <country>
    <countryCode>CA</countryCode>
    <countryName>Canada</countryName>
    <longitude>-106.346771</longitude>
    <latitude>56.130366</latitude>
  </country>
  <country>
    <countryCode>CF</countryCode>
    <countryName>CAR</countryName>
    <longitude>20.939444</longitude>
    <latitude>6.611111</latitude>
  </country>
  <country>
    <countryCode>KY</countryCode>
    <countryName>Cayman Islands</countryName>
    <longitude>-80.566956</longitude>
    <latitude>19.513469</latitude>
  </country>
  <country>
    <countryCode>TD</countryCode>
    <countryName>Chad</countryName>
    <longitude>18.732207</longitude>
    <latitude>15.454166</latitude>
  </country>
  <country>
    <countryCode>null</countryCode>
    <countryName>Channel Islands</countryName>
    <longitude>-2.364351</longitude>
    <latitude>49.372284</latitude>
  </country>
  <country>
    <countryCode>CL</countryCode>
    <countryName>Chile</countryName>
    <longitude>-71.542969</longitude>
    <latitude>-35.675147</latitude>
  </country>
  <country>
    <countryCode>CN</countryCode>
    <countryName>China</countryName>
    <longitude>104.195397</longitude>
    <latitude>35.86166</latitude>
  </country>
  <country>
    <countryCode>CX</countryCode>
    <countryName>Christmas Island</countryName>
    <longitude>105.690449</longitude>
    <latitude>-10.447525</latitude>
  </country>
  <country>
    <countryCode>CC</countryCode>
    <countryName>Cocos (Keeling) Islands</countryName>
    <longitude>96.870956</longitude>
    <latitude>-12.164165</latitude>
  </country>
  <country>
    <countryCode>CO</countryCode>
    <countryName>Colombia</countryName>
    <longitude>-74.297333</longitude>
    <latitude>4.570868</latitude>
  </country>
  <country>
    <countryCode>KM</countryCode>
    <countryName>Comoros</countryName>
    <longitude>43.872219</longitude>
    <latitude>-11.875001</latitude>
  </country>
  <country>
    <countryCode>CG</countryCode>
    <countryName>Congo</countryName>
    <longitude>15.827659</longitude>
    <latitude>-0.228021</latitude>
  </country>
  <country>
    <countryCode>CK</countryCode>
    <countryName>Cook Islands</countryName>
    <longitude>-159.777671</longitude>
    <latitude>-21.236736</latitude>
  </country>
  <country>
    <countryCode>CR</countryCode>
    <countryName>Costa Rica</countryName>
    <longitude>-83.753428</longitude>
    <latitude>9.748917</latitude>
  </country>
  <country>
    <countryCode>HR</countryCode>
    <countryName>Croatia</countryName>
    <longitude>15.2</longitude>
    <latitude>45.1</latitude>
  </country>
  <country>
    <countryCode>CU</countryCode>
    <countryName>Cuba</countryName>
    <longitude>-77.781167</longitude>
    <latitude>21.521757</latitude>
  </country>
  <country>
    <countryCode>CW</countryCode>
    <countryName>Curaçao</countryName>
    <longitude>-68.990021</longitude>
    <latitude>12.16957</latitude>
  </country>
  <country>
    <countryCode>CY</countryCode>
    <countryName>Cyprus</countryName>
    <longitude>33.429859</longitude>
    <latitude>35.126413</latitude>
  </country>
  <country>
    <countryCode>CZ</countryCode>
    <countryName>Czech Republic</countryName>
    <longitude>15.472962</longitude>
    <latitude>49.817492</latitude>
  </country>
  <country>
    <countryCode>DK</countryCode>
    <countryName>Denmark</countryName>
    <longitude>9.501785</longitude>
    <latitude>56.26392</latitude>
  </country>
  <country>
    <countryCode>DJ</countryCode>
    <countryName>Djibouti</countryName>
    <longitude>42.590275</longitude>
    <latitude>11.825138</latitude>
  </country>
  <country>
    <countryCode>DM</countryCode>
    <countryName>Dominica</countryName>
    <longitude>-61.370976</longitude>
    <latitude>15.414999</latitude>
  </country>
  <country>
    <countryCode>DO</countryCode>
    <countryName>Dominican Republic</countryName>
    <longitude>-70.162651</longitude>
    <latitude>18.735693</latitude>
  </country>
  <country>
    <countryCode>CD</countryCode>
    <countryName>DRC</countryName>
    <longitude>21.758664</longitude>
    <latitude>-4.038333</latitude>
  </country>
  <country>
    <countryCode>EC</countryCode>
    <countryName>Ecuador</countryName>
    <longitude>-78.183406</longitude>
    <latitude>-1.831239</latitude>
  </country>
  <country>
    <countryCode>EG</countryCode>
    <countryName>Egypt</countryName>
    <longitude>30.802498</longitude>
    <latitude>26.820553</latitude>
  </country>
  <country>
    <countryCode>SV</countryCode>
    <countryName>El Salvador</countryName>
    <longitude>-88.89653</longitude>
    <latitude>13.794185</latitude>
  </country>
  <country>
    <countryCode>GQ</countryCode>
    <countryName>Equatorial Guinea</countryName>
    <longitude>10.267895</longitude>
    <latitude>1.650801</latitude>
  </country>
  <country>
    <countryCode>ER</countryCode>
    <countryName>Eritrea</countryName>
    <longitude>39.782334</longitude>
    <latitude>15.179384</latitude>
  </country>
  <country>
    <countryCode>EE</countryCode>
    <countryName>Estonia</countryName>
    <longitude>25.013607</longitude>
    <latitude>58.595272</latitude>
  </country>
  <country>
    <countryCode>SZ</countryCode>
    <countryName>Eswatini</countryName>
    <longitude>31.465866</longitude>
    <latitude>-26.522503</latitude>
  </country>
  <country>
    <countryCode>ET</countryCode>
    <countryName>Ethiopia</countryName>
    <longitude>40.489673</longitude>
    <latitude>9.145</latitude>
  </country>
  <country>
    <countryCode>FO</countryCode>
    <countryName>Faeroe Islands</countryName>
    <longitude>-6.911806</longitude>
    <latitude>61.892635</latitude>
  </country>
  <country>
    <countryCode>FK</countryCode>
    <countryName>Falkland Islands</countryName>
    <longitude>-59.523613</longitude>
    <latitude>-51.796253</latitude>
  </country>
  <country>
    <countryCode>FJ</countryCode>
    <countryName>Fiji</countryName>
    <longitude>179.414413</longitude>
    <latitude>-16.578193</latitude>
  </country>
  <country>
    <countryCode>FI</countryCode>
    <countryName>Finland</countryName>
    <longitude>25.748151</longitude>
    <latitude>61.92411</latitude>
  </country>
  <country>
    <countryCode>FR</countryCode>
    <countryName>France</countryName>
    <longitude>2.213749</longitude>
    <latitude>46.227638</latitude>
  </country>
  <country>
    <countryCode>GF</countryCode>
    <countryName>French Guiana</countryName>
    <longitude>-53.125782</longitude>
    <latitude>3.933889</latitude>
  </country>
  <country>
    <countryCode>PF</countryCode>
    <countryName>French Polynesia</countryName>
    <longitude>-149.406843</longitude>
    <latitude>-17.679742</latitude>
  </country>
  <country>
    <countryCode>TF</countryCode>
    <countryName>French Southern Territories</countryName>
    <longitude>69.348557</longitude>
    <latitude>-49.280366</latitude>
  </country>
  <country>
    <countryCode>GA</countryCode>
    <countryName>Gabon</countryName>
    <longitude>11.609444</longitude>
    <latitude>-0.803689</latitude>
  </country>
  <country>
    <countryCode>GM</countryCode>
    <countryName>Gambia</countryName>
    <longitude>-15.310139</longitude>
    <latitude>13.443182</latitude>
  </country>
  <country>
    <countryCode>GE</countryCode>
    <countryName>Georgia</countryName>
    <longitude>43.356892</longitude>
    <latitude>42.315407</latitude>
  </country>
  <country>
    <countryCode>DE</countryCode>
    <countryName>Germany</countryName>
    <longitude>10.451526</longitude>
    <latitude>51.165691</latitude>
  </country>
  <country>
    <countryCode>GH</countryCode>
    <countryName>Ghana</countryName>
    <longitude>-1.023194</longitude>
    <latitude>7.946527</latitude>
  </country>
  <country>
    <countryCode>GI</countryCode>
    <countryName>Gibraltar</countryName>
    <longitude>-5.345374</longitude>
    <latitude>36.137741</latitude>
  </country>
  <country>
    <countryCode>GR</countryCode>
    <countryName>Greece</countryName>
    <longitude>21.824312</longitude>
    <latitude>39.074208</latitude>
  </country>
  <country>
    <countryCode>GL</countryCode>
    <countryName>Greenland</countryName>
    <longitude>-42.604303</longitude>
    <latitude>71.706936</latitude>
  </country>
  <country>
    <countryCode>GD</countryCode>
    <countryName>Grenada</countryName>
    <longitude>-61.604171</longitude>
    <latitude>12.262776</latitude>
  </country>
  <country>
    <countryCode>GP</countryCode>
    <countryName>Guadeloupe</countryName>
    <longitude>-62.067641</longitude>
    <latitude>16.995971</latitude>
  </country>
  <country>
    <countryCode>GU</countryCode>
    <countryName>Guam</countryName>
    <longitude>144.793731</longitude>
    <latitude>13.444304</latitude>
  </country>
  <country>
    <countryCode>GT</countryCode>
    <countryName>Guatemala</countryName>
    <longitude>-90.230759</longitude>
    <latitude>15.783471</latitude>
  </country>
  <country>
    <countryCode>GG</countryCode>
    <countryName>Guernsey</countryName>
    <longitude>-2.585278</longitude>
    <latitude>49.465691</latitude>
  </country>
  <country>
    <countryCode>GN</countryCode>
    <countryName>Guinea</countryName>
    <longitude>-9.696645</longitude>
    <latitude>9.945587</latitude>
  </country>
  <country>
    <countryCode>GW</countryCode>
    <countryName>Guinea-Bissau</countryName>
    <longitude>-15.180413</longitude>
    <latitude>11.803749</latitude>
  </country>
  <country>
    <countryCode>GY</countryCode>
    <countryName>Guyana</countryName>
    <longitude>-58.93018</longitude>
    <latitude>4.860416</latitude>
  </country>
  <country>
    <countryCode>HT</countryCode>
    <countryName>Haiti</countryName>
    <longitude>-72.285215</longitude>
    <latitude>18.971187</latitude>
  </country>
  <country>
    <countryCode>HM</countryCode>
    <countryName>Heard Island and Mcdonald Islands</countryName>
    <longitude>73.504158</longitude>
    <latitude>-53.08181</latitude>
  </country>
  <country>
    <countryCode>HN</countryCode>
    <countryName>Honduras</countryName>
    <longitude>-86.241905</longitude>
    <latitude>15.199999</latitude>
  </country>
  <country>
    <countryCode>HK</countryCode>
    <countryName>Hong Kong</countryName>
    <longitude>114.109497</longitude>
    <latitude>22.396428</latitude>
  </country>
  <country>
    <countryCode>HU</countryCode>
    <countryName>Hungary</countryName>
    <longitude>19.503304</longitude>
    <latitude>47.162494</latitude>
  </country>
  <country>
    <countryCode>IS</countryCode>
    <countryName>Iceland</countryName>
    <longitude>-19.020835</longitude>
    <latitude>64.963051</latitude>
  </country>
  <country>
    <countryCode>IN</countryCode>
    <countryName>India</countryName>
    <longitude>78.96288</longitude>
    <latitude>20.593684</latitude>
  </country>
  <country>
    <countryCode>ID</countryCode>
    <countryName>Indonesia</countryName>
    <longitude>113.921327</longitude>
    <latitude>-0.789275</latitude>
  </country>
  <country>
    <countryCode>IR</countryCode>
    <countryName>Iran</countryName>
    <longitude>53.688046</longitude>
    <latitude>32.427908</latitude>
  </country>
  <country>
    <countryCode>IQ</countryCode>
    <countryName>Iraq</countryName>
    <longitude>43.679291</longitude>
    <latitude>33.223191</latitude>
  </country>
  <country>
    <countryCode>IE</countryCode>
    <countryName>Ireland</countryName>
    <longitude>-8.24389</longitude>
    <latitude>53.41291</latitude>
  </country>
  <country>
    <countryCode>IM</countryCode>
    <countryName>Isle of Man</countryName>
    <longitude>-4.548056</longitude>
    <latitude>54.236107</latitude>
  </country>
  <country>
    <countryCode>IL</countryCode>
    <countryName>Israel</countryName>
    <longitude>34.851612</longitude>
    <latitude>31.046051</latitude>
  </country>
  <country>
    <countryCode>IT</countryCode>
    <countryName>Italy</countryName>
    <longitude>12.56738</longitude>
    <latitude>41.87194</latitude>
  </country>
  <country>
    <countryCode>CI</countryCode>
    <countryName>Ivory Coast</countryName>
    <longitude>-5.54708</longitude>
    <latitude>7.539989</latitude>
  </country>
  <country>
    <countryCode>JM</countryCode>
    <countryName>Jamaica</countryName>
    <longitude>-77.297508</longitude>
    <latitude>18.109581</latitude>
  </country>
  <country>
    <countryCode>JP</countryCode>
    <countryName>Japan</countryName>
    <longitude>138.252924</longitude>
    <latitude>36.204824</latitude>
  </country>
  <country>
    <countryCode>JE</countryCode>
    <countryName>Jersey</countryName>
    <longitude>-2.13125</longitude>
    <latitude>49.214439</latitude>
  </country>
  <country>
    <countryCode>JO</countryCode>
    <countryName>Jordan</countryName>
    <longitude>36.238414</longitude>
    <latitude>30.585164</latitude>
  </country>
  <country>
    <countryCode>KZ</countryCode>
    <countryName>Kazakhstan</countryName>
    <longitude>66.923684</longitude>
    <latitude>48.019573</latitude>
  </country>
  <country>
    <countryCode>KE</countryCode>
    <countryName>Kenya</countryName>
    <longitude>37.906193</longitude>
    <latitude>-0.023559</latitude>
  </country>
  <country>
    <countryCode>KI</countryCode>
    <countryName>Kiribati</countryName>
    <longitude>-168.734039</longitude>
    <latitude>-3.370417</latitude>
  </country>
  <country>
    <countryCode>null</countryCode>
    <countryName>Kosovo* (disputed teritory)</countryName>
    <longitude>21.09611</longitude>
    <latitude>42.66394</latitude>
  </country>
  <country>
    <countryCode>KW</countryCode>
    <countryName>Kuwait</countryName>
    <longitude>47.481766</longitude>
    <latitude>29.31166</latitude>
  </country>
  <country>
    <countryCode>KG</countryCode>
    <countryName>Kyrgyzstan</countryName>
    <longitude>74.766098</longitude>
    <latitude>41.20438</latitude>
  </country>
  <country>
    <countryCode>LA</countryCode>
    <countryName>Laos</countryName>
    <longitude>102.495496</longitude>
    <latitude>19.85627</latitude>
  </country>
  <country>
    <countryCode>LV</countryCode>
    <countryName>Latvia</countryName>
    <longitude>24.603189</longitude>
    <latitude>56.879635</latitude>
  </country>
  <country>
    <countryCode>LB</countryCode>
    <countryName>Lebanon</countryName>
    <longitude>35.862285</longitude>
    <latitude>33.854721</latitude>
  </country>
  <country>
    <countryCode>LS</countryCode>
    <countryName>Lesotho</countryName>
    <longitude>28.233608</longitude>
    <latitude>-29.609988</latitude>
  </country>
  <country>
    <countryCode>LR</countryCode>
    <countryName>Liberia</countryName>
    <longitude>-9.429499</longitude>
    <latitude>6.428055</latitude>
  </country>
  <country>
    <countryCode>LY</countryCode>
    <countryName>Libya</countryName>
    <longitude>17.228331</longitude>
    <latitude>26.3351</latitude>
  </country>
  <country>
    <countryCode>LI</countryCode>
    <countryName>Liechtenstein</countryName>
    <longitude>9.555373</longitude>
    <latitude>47.166</latitude>
  </country>
  <country>
    <countryCode>LT</countryCode>
    <countryName>Lithuania</countryName>
    <longitude>23.881275</longitude>
    <latitude>55.169438</latitude>
  </country>
  <country>
    <countryCode>LU</countryCode>
    <countryName>Luxembourg</countryName>
    <longitude>6.129583</longitude>
    <latitude>49.815273</latitude>
  </country>
  <country>
    <countryCode>MO</countryCode>
    <countryName>Macao</countryName>
    <longitude>113.543873</longitude>
    <latitude>22.198745</latitude>
  </country>
  <country>
    <countryCode>MG</countryCode>
    <countryName>Madagascar</countryName>
    <longitude>46.869107</longitude>
    <latitude>-18.766947</latitude>
  </country>
  <country>
    <countryCode>MW</countryCode>
    <countryName>Malawi</countryName>
    <longitude>34.301525</longitude>
    <latitude>-13.254308</latitude>
  </country>
  <country>
    <countryCode>MY</countryCode>
    <countryName>Malaysia</countryName>
    <longitude>101.975766</longitude>
    <latitude>4.210484</latitude>
  </country>
  <country>
    <countryCode>MV</countryCode>
    <countryName>Maldives</countryName>
    <longitude>73.22068</longitude>
    <latitude>3.202778</latitude>
  </country>
  <country>
    <countryCode>ML</countryCode>
    <countryName>Mali</countryName>
    <longitude>-3.996166</longitude>
    <latitude>17.570692</latitude>
  </country>
  <country>
    <countryCode>MT</countryCode>
    <countryName>Malta</countryName>
    <longitude>14.375416</longitude>
    <latitude>35.937496</latitude>
  </country>
  <country>
    <countryCode>MH</countryCode>
    <countryName>Marshall Islands</countryName>
    <longitude>171.184478</longitude>
    <latitude>7.131474</latitude>
  </country>
  <country>
    <countryCode>MQ</countryCode>
    <countryName>Martinique</countryName>
    <longitude>-61.024174</longitude>
    <latitude>14.641528</latitude>
  </country>
  <country>
    <countryCode>MR</countryCode>
    <countryName>Mauritania</countryName>
    <longitude>-10.940835</longitude>
    <latitude>21.00789</latitude>
  </country>
  <country>
    <countryCode>MU</countryCode>
    <countryName>Mauritius</countryName>
    <longitude>57.552152</longitude>
    <latitude>-20.348404</latitude>
  </country>
  <country>
    <countryCode>YT</countryCode>
    <countryName>Mayotte</countryName>
    <longitude>45.166244</longitude>
    <latitude>-12.8275</latitude>
  </country>
  <country>
    <countryCode>MX</countryCode>
    <countryName>Mexico</countryName>
    <longitude>-102.552784</longitude>
    <latitude>23.634501</latitude>
  </country>
  <country>
    <countryCode>FM</countryCode>
    <countryName>Micronesia</countryName>
    <longitude>150.550812</longitude>
    <latitude>7.425554</latitude>
  </country>
  <country>
    <countryCode>MD</countryCode>
    <countryName>Moldova</countryName>
    <longitude>28.369885</longitude>
    <latitude>47.411631</latitude>
  </country>
  <country>
    <countryCode>MC</countryCode>
    <countryName>Monaco</countryName>
    <longitude>7.412841</longitude>
    <latitude>43.750298</latitude>
  </country>
  <country>
    <countryCode>MN</countryCode>
    <countryName>Mongolia</countryName>
    <longitude>103.846656</longitude>
    <latitude>46.862496</latitude>
  </country>
  <country>
    <countryCode>ME</countryCode>
    <countryName>Montenegro</countryName>
    <longitude>19.37439</longitude>
    <latitude>42.708678</latitude>
  </country>
  <country>
    <countryCode>MS</countryCode>
    <countryName>Montserrat</countryName>
    <longitude>-62.187366</longitude>
    <latitude>16.742498</latitude>
  </country>
  <country>
    <countryCode>MA</countryCode>
    <countryName>Morocco</countryName>
    <longitude>-7.09262</longitude>
    <latitude>31.791702</latitude>
  </country>
  <country>
    <countryCode>MZ</countryCode>
    <countryName>Mozambique</countryName>
    <longitude>35.529562</longitude>
    <latitude>-18.665695</latitude>
  </country>
  <country>
    <countryCode>MM</countryCode>
    <countryName>Myanmar</countryName>
    <longitude>95.956223</longitude>
    <latitude>21.913965</latitude>
  </country>
  <country>
    <countryCode>NA</countryCode>
    <countryName>Namibia</countryName>
    <longitude>18.49041</longitude>
    <latitude>-22.95764</latitude>
  </country>
  <country>
    <countryCode>NR</countryCode>
    <countryName>Nauru</countryName>
    <longitude>166.931503</longitude>
    <latitude>-0.522778</latitude>
  </country>
  <country>
    <countryCode>NP</countryCode>
    <countryName>Nepal</countryName>
    <longitude>84.124008</longitude>
    <latitude>28.394857</latitude>
  </country>
  <country>
    <countryCode>NL</countryCode>
    <countryName>Netherlands</countryName>
    <longitude>5.291266</longitude>
    <latitude>52.132633</latitude>
  </country>
  <country>
    <countryCode>NC</countryCode>
    <countryName>New Caledonia</countryName>
    <longitude>165.618042</longitude>
    <latitude>-20.904305</latitude>
  </country>
  <country>
    <countryCode>NZ</countryCode>
    <countryName>New Zealand</countryName>
    <longitude>174.885971</longitude>
    <latitude>-40.900557</latitude>
  </country>
  <country>
    <countryCode>NI</countryCode>
    <countryName>Nicaragua</countryName>
    <longitude>-85.207229</longitude>
    <latitude>12.865416</latitude>
  </country>
  <country>
    <countryCode>NE</countryCode>
    <countryName>Niger</countryName>
    <longitude>8.081666</longitude>
    <latitude>17.607789</latitude>
  </country>
  <country>
    <countryCode>NG</countryCode>
    <countryName>Nigeria</countryName>
    <longitude>8.675277</longitude>
    <latitude>9.081999</latitude>
  </country>
  <country>
    <countryCode>NU</countryCode>
    <countryName>Niue</countryName>
    <longitude>-169.867233</longitude>
    <latitude>-19.054445</latitude>
  </country>
  <country>
    <countryCode>NF</countryCode>
    <countryName>Norfolk Island</countryName>
    <longitude>167.954712</longitude>
    <latitude>-29.040835</latitude>
  </country>
  <country>
    <countryCode>KP</countryCode>
    <countryName>North Korea</countryName>
    <longitude>127.510093</longitude>
    <latitude>40.339852</latitude>
  </country>
  <country>
    <countryCode>MK</countryCode>
    <countryName>North Macedonia</countryName>
    <longitude>21.745275</longitude>
    <latitude>41.608635</latitude>
  </country>
  <country>
    <countryCode>MP</countryCode>
    <countryName>Northern Mariana Islands</countryName>
    <longitude>145.38469</longitude>
    <latitude>17.33083</latitude>
  </country>
  <country>
    <countryCode>NO</countryCode>
    <countryName>Norway</countryName>
    <longitude>8.468946</longitude>
    <latitude>60.472024</latitude>
  </country>
  <country>
    <countryCode>OM</countryCode>
    <countryName>Oman</countryName>
    <longitude>55.923255</longitude>
    <latitude>21.512583</latitude>
  </country>
  <country>
    <countryCode>PK</countryCode>
    <countryName>Pakistan</countryName>
    <longitude>69.345116</longitude>
    <latitude>30.375321</latitude>
  </country>
  <country>
    <countryCode>PW</countryCode>
    <countryName>Palau</countryName>
    <longitude>134.58252</longitude>
    <latitude>7.51498</latitude>
  </country>
  <country>
    <countryCode>PS</countryCode>
    <countryName>Palestine</countryName>
    <longitude>35.233154</longitude>
    <latitude>31.952162</latitude>
  </country>
  <country>
    <countryCode>PA</countryCode>
    <countryName>Panama</countryName>
    <longitude>-80.782127</longitude>
    <latitude>8.537981</latitude>
  </country>
  <country>
    <countryCode>PG</countryCode>
    <countryName>Papua New Guinea</countryName>
    <longitude>143.95555</longitude>
    <latitude>-6.314993</latitude>
  </country>
  <country>
    <countryCode>PY</countryCode>
    <countryName>Paraguay</countryName>
    <longitude>-58.443832</longitude>
    <latitude>-23.442503</latitude>
  </country>
  <country>
    <countryCode>PE</countryCode>
    <countryName>Peru</countryName>
    <longitude>-75.015152</longitude>
    <latitude>-9.189967</latitude>
  </country>
  <country>
    <countryCode>PH</countryCode>
    <countryName>Philippines</countryName>
    <longitude>121.774017</longitude>
    <latitude>12.879721</latitude>
  </country>
  <country>
    <countryCode>PN</countryCode>
    <countryName>Pitcairn</countryName>
    <longitude>-127.439308</longitude>
    <latitude>-24.703615</latitude>
  </country>
  <country>
    <countryCode>PL</countryCode>
    <countryName>Poland</countryName>
    <longitude>19.145136</longitude>
    <latitude>51.919438</latitude>
  </country>
  <country>
    <countryCode>PT</countryCode>
    <countryName>Portugal</countryName>
    <longitude>-8.224454</longitude>
    <latitude>39.399872</latitude>
  </country>
  <country>
    <countryCode>PR</countryCode>
    <countryName>Puerto Rico</countryName>
    <longitude>-66.590149</longitude>
    <latitude>18.220833</latitude>
  </country>
  <country>
    <countryCode>QA</countryCode>
    <countryName>Qatar</countryName>
    <longitude>51.183884</longitude>
    <latitude>25.354826</latitude>
  </country>
  <country>
    <countryCode>RE</countryCode>
    <countryName>Reunion</countryName>
    <longitude>55.536384</longitude>
    <latitude>-21.115141</latitude>
  </country>
  <country>
    <countryCode>RO</countryCode>
    <countryName>Romania</countryName>
    <longitude>24.96676</longitude>
    <latitude>45.943161</latitude>
  </country>
  <country>
    <countryCode>RU</countryCode>
    <countryName>Russia</countryName>
    <longitude>105.318756</longitude>
    <latitude>61.52401</latitude>
  </country>
  <country>
    <countryCode>RW</countryCode>
    <countryName>Rwanda</countryName>
    <longitude>29.873888</longitude>
    <latitude>-1.940278</latitude>
  </country>
  <country>
    <countryCode>BL</countryCode>
    <countryName>Saint Barthélemy</countryName>
    <longitude>-62.8338521</longitude>
    <latitude>17.9139222</latitude>
  </country>
  <country>
    <countryCode>SH</countryCode>
    <countryName>Saint Helena, Ascension and Tristan da Cunha</countryName>
    <longitude>-10.030696</longitude>
    <latitude>-24.143474</latitude>
  </country>
  <country>
    <countryCode>KN</countryCode>
    <countryName>Saint Kitts and Nevis</countryName>
    <longitude>-62.782998</longitude>
    <latitude>17.357822</latitude>
  </country>
  <country>
    <countryCode>LC</countryCode>
    <countryName>Saint Lucia</countryName>
    <longitude>-60.978893</longitude>
    <latitude>13.909444</latitude>
  </country>
  <country>
    <countryCode>MF</countryCode>
    <countryName>Saint Martin</countryName>
    <longitude>-63.060001</longitude>
    <latitude>18.075277</latitude>
  </country>
  <country>
    <countryCode>PM</countryCode>
    <countryName>Saint Pierre and Miquelon</countryName>
    <longitude>-56.27111</longitude>
    <latitude>46.941936</latitude>
  </country>
  <country>
    <countryCode>WS</countryCode>
    <countryName>Samoa</countryName>
    <longitude>-172.104629</longitude>
    <latitude>-13.759029</latitude>
  </country>
  <country>
    <countryCode>SM</countryCode>
    <countryName>San Marino</countryName>
    <longitude>12.457777</longitude>
    <latitude>43.94236</latitude>
  </country>
  <country>
    <countryCode>ST</countryCode>
    <countryName>Sao Tome and Principe</countryName>
    <longitude>6.613081</longitude>
    <latitude>0.18636</latitude>
  </country>
  <country>
    <countryCode>SA</countryCode>
    <countryName>Saudi Arabia</countryName>
    <longitude>45.079162</longitude>
    <latitude>23.885942</latitude>
  </country>
  <country>
    <countryCode>SN</countryCode>
    <countryName>Senegal</countryName>
    <longitude>-14.452362</longitude>
    <latitude>14.497401</latitude>
  </country>
  <country>
    <countryCode>RS</countryCode>
    <countryName>Serbia</countryName>
    <longitude>21.005859</longitude>
    <latitude>44.016521</latitude>
  </country>
  <country>
    <countryCode>SC</countryCode>
    <countryName>Seychelles</countryName>
    <longitude>55.491977</longitude>
    <latitude>-4.679574</latitude>
  </country>
  <country>
    <countryCode>SL</countryCode>
    <countryName>Sierra Leone</countryName>
    <longitude>-11.779889</longitude>
    <latitude>8.460555</latitude>
  </country>
  <country>
    <countryCode>SG</countryCode>
    <countryName>Singapore</countryName>
    <longitude>103.819836</longitude>
    <latitude>1.352083</latitude>
  </country>
  <country>
    <countryCode>SX</countryCode>
    <countryName>Sint Maarten</countryName>
    <longitude>-63.0681114</longitude>
    <latitude>18.0347188</latitude>
  </country>
  <country>
    <countryCode>SK</countryCode>
    <countryName>Slovakia</countryName>
    <longitude>19.699024</longitude>
    <latitude>48.669026</latitude>
  </country>
  <country>
    <countryCode>SI</countryCode>
    <countryName>Slovenia</countryName>
    <longitude>14.995463</longitude>
    <latitude>46.151241</latitude>
  </country>
  <country>
    <countryCode>SB</countryCode>
    <countryName>Solomon Islands</countryName>
    <longitude>160.156194</longitude>
    <latitude>-9.64571</latitude>
  </country>
  <country>
    <countryCode>SO</countryCode>
    <countryName>Somalia</countryName>
    <longitude>46.199616</longitude>
    <latitude>5.152149</latitude>
  </country>
  <country>
    <countryCode>ZA</countryCode>
    <countryName>South Africa</countryName>
    <longitude>22.937506</longitude>
    <latitude>-30.559482</latitude>
  </country>
  <country>
    <countryCode>GS</countryCode>
    <countryName>South Georgia and the South Sandwich Islands</countryName>
    <longitude>-36.587909</longitude>
    <latitude>-54.429579</latitude>
  </country>
  <country>
    <countryCode>KR</countryCode>
    <countryName>South Korea</countryName>
    <longitude>127.766922</longitude>
    <latitude>35.907757</latitude>
  </country>
  <country>
    <countryCode>SS</countryCode>
    <countryName>South Sudan</countryName>
    <longitude>29.6949232</longitude>
    <latitude>7.8626845</latitude>
  </country>
  <country>
    <countryCode>ES</countryCode>
    <countryName>Spain</countryName>
    <longitude>-3.74922</longitude>
    <latitude>40.463667</latitude>
  </country>
  <country>
    <countryCode>LK</countryCode>
    <countryName>Sri Lanka</countryName>
    <longitude>80.771797</longitude>
    <latitude>7.873054</latitude>
  </country>
  <country>
    <countryCode>VC</countryCode>
    <countryName>St. Vincent Grenadines</countryName>
    <longitude>-61.287228</longitude>
    <latitude>12.984305</latitude>
  </country>
  <country>
    <countryCode>SD</countryCode>
    <countryName>Sudan</countryName>
    <longitude>30.217636</longitude>
    <latitude>12.862807</latitude>
  </country>
  <country>
    <countryCode>SR</countryCode>
    <countryName>Suriname</countryName>
    <longitude>-56.027783</longitude>
    <latitude>3.919305</latitude>
  </country>
  <country>
    <countryCode>SJ</countryCode>
    <countryName>Svalbard and Jan Mayen</countryName>
    <longitude>23.670272</longitude>
    <latitude>77.553604</latitude>
  </country>
  <country>
    <countryCode>SE</countryCode>
    <countryName>Sweden</countryName>
    <longitude>18.643501</longitude>
    <latitude>60.128161</latitude>
  </country>
  <country>
    <countryCode>CH</countryCode>
    <countryName>Switzerland</countryName>
    <longitude>8.227512</longitude>
    <latitude>46.818188</latitude>
  </country>
  <country>
    <countryCode>SY</countryCode>
    <countryName>Syria</countryName>
    <longitude>38.996815</longitude>
    <latitude>34.802075</latitude>
  </country>
  <country>
    <countryCode>TW</countryCode>
    <countryName>Taiwan</countryName>
    <longitude>120.960515</longitude>
    <latitude>23.69781</latitude>
  </country>
  <country>
    <countryCode>TJ</countryCode>
    <countryName>Tajikistan</countryName>
    <longitude>71.276093</longitude>
    <latitude>38.861034</latitude>
  </country>
  <country>
    <countryCode>TZ</countryCode>
    <countryName>Tanzania</countryName>
    <longitude>34.888822</longitude>
    <latitude>-6.369028</latitude>
  </country>
  <country>
    <countryCode>TH</countryCode>
    <countryName>Thailand</countryName>
    <longitude>100.992541</longitude>
    <latitude>15.870032</latitude>
  </country>
  <country>
    <countryCode>TL</countryCode>
    <countryName>Timor-Leste</countryName>
    <longitude>125.727539</longitude>
    <latitude>-8.874217</latitude>
  </country>
  <country>
    <countryCode>TG</countryCode>
    <countryName>Togo</countryName>
    <longitude>0.824782</longitude>
    <latitude>8.619543</latitude>
  </country>
  <country>
    <countryCode>TK</countryCode>
    <countryName>Tokelau</countryName>
    <longitude>-171.855881</longitude>
    <latitude>-8.967363</latitude>
  </country>
  <country>
    <countryCode>TO</countryCode>
    <countryName>Tonga</countryName>
    <longitude>-175.198242</longitude>
    <latitude>-21.178986</latitude>
  </country>
  <country>
    <countryCode>TT</countryCode>
    <countryName>Trinidad and Tobago</countryName>
    <longitude>-61.222503</longitude>
    <latitude>10.691803</latitude>
  </country>
  <country>
    <countryCode>TN</countryCode>
    <countryName>Tunisia</countryName>
    <longitude>9.537499</longitude>
    <latitude>33.886917</latitude>
  </country>
  <country>
    <countryCode>TR</countryCode>
    <countryName>Turkey</countryName>
    <longitude>35.243322</longitude>
    <latitude>38.963745</latitude>
  </country>
  <country>
    <countryCode>TM</countryCode>
    <countryName>Turkmenistan</countryName>
    <longitude>59.556278</longitude>
    <latitude>38.969719</latitude>
  </country>
  <country>
    <countryCode>TC</countryCode>
    <countryName>Turks and Caicos</countryName>
    <longitude>-71.797928</longitude>
    <latitude>21.694025</latitude>
  </country>
  <country>
    <countryCode>TV</countryCode>
    <countryName>Tuvalu</countryName>
    <longitude>177.64933</longitude>
    <latitude>-7.109535</latitude>
  </country>
  <country>
    <countryCode>VI</countryCode>
    <countryName>U.S. Virgin Islands</countryName>
    <longitude>-64.896335</longitude>
    <latitude>18.335765</latitude>
  </country>
  <country>
    <countryCode>AE</countryCode>
    <countryName>UAE</countryName>
    <longitude>53.847818</longitude>
    <latitude>23.424076</latitude>
  </country>
  <country>
    <countryCode>UG</countryCode>
    <countryName>Uganda</countryName>
    <longitude>32.290275</longitude>
    <latitude>1.373333</latitude>
  </country>
  <country>
    <countryCode>GB</countryCode>
    <countryName>UK</countryName>
    <longitude>-3.435973</longitude>
    <latitude>55.378051</latitude>
  </country>
  <country>
    <countryCode>UA</countryCode>
    <countryName>Ukraine</countryName>
    <longitude>31.16558</longitude>
    <latitude>48.379433</latitude>
  </country>
  <country>
    <countryCode>UM</countryCode>
    <countryName>United States Minor Outlying Islands</countryName>
    <longitude>166.6280441</longitude>
    <latitude>19.295374</latitude>
  </country>
  <country>
    <countryCode>UY</countryCode>
    <countryName>Uruguay</countryName>
    <longitude>-55.765835</longitude>
    <latitude>-32.522779</latitude>
  </country>
  <country>
    <countryCode>US</countryCode>
    <countryName>USA</countryName>
    <longitude>-95.712891</longitude>
    <latitude>37.09024</latitude>
  </country>
  <country>
    <countryCode>UZ</countryCode>
    <countryName>Uzbekistan</countryName>
    <longitude>64.585262</longitude>
    <latitude>41.377491</latitude>
  </country>
  <country>
    <countryCode>VU</countryCode>
    <countryName>Vanuatu</countryName>
    <longitude>166.959158</longitude>
    <latitude>-15.376706</latitude>
  </country>
  <country>
    <countryCode>VA</countryCode>
    <countryName>Vatican City</countryName>
    <longitude>12.453389</longitude>
    <latitude>41.902916</latitude>
  </country>
  <country>
    <countryCode>VE</countryCode>
    <countryName>Venezuela</countryName>
    <longitude>-66.58973</longitude>
    <latitude>6.42375</latitude>
  </country>
  <country>
    <countryCode>VN</countryCode>
    <countryName>Vietnam</countryName>
    <longitude>108.277199</longitude>
    <latitude>14.058324</latitude>
  </country>
  <country>
    <countryCode>WF</countryCode>
    <countryName>Wallis and Futuna</countryName>
    <longitude>-177.156097</longitude>
    <latitude>-13.768752</latitude>
  </country>
  <country>
    <countryCode>EH</countryCode>
    <countryName>Western Sahara</countryName>
    <longitude>-12.885834</longitude>
    <latitude>24.215527</latitude>
  </country>
  <country>
    <countryCode>YE</countryCode>
    <countryName>Yemen</countryName>
    <longitude>48.516388</longitude>
    <latitude>15.552727</latitude>
  </country>
  <country>
    <countryCode>ZM</countryCode>
    <countryName>Zambia</countryName>
    <longitude>27.849332</longitude>
    <latitude>-13.133897</latitude>
  </country>
  <country>
    <countryCode>ZW</countryCode>
    <countryName>Zimbabwe</countryName>
    <longitude>29.154857</longitude>
    <latitude>-19.015438</latitude>
  </country>
</countries>
